City_ID,City,Lat,Lng,Max Temp,Humidity,Cloudiness,Wind Speed,Country,Date
0,bredasdorp,-34.5322,20.0403,22.72,35,0,2.81,ZA,1693296478
1,lebu,-37.6167,-73.65,8.68,76,79,1.96,CL,1693296478
2,usogorsk,63.4106,48.6872,14.84,55,62,0.88,RU,1693296478
3,kudahuvadhoo,2.6708,72.8944,27.47,75,89,4.69,MV,1693296479
4,puerto natales,-51.7236,-72.4875,-0.77,92,96,1.47,CL,1693296479
5,margate,51.3813,1.3862,15.94,77,14,1.79,GB,1693296480
6,coihueco,-36.6167,-71.8333,7.41,100,3,1.03,CL,1693296480
7,waitangi,-43.9535,-176.5597,8.79,78,46,2.24,NZ,1693296374
8,isafjordur,66.0755,-23.124,9.02,87,100,2.06,IS,1693296481
9,nadym,65.5333,72.5167,18.13,42,64,8.49,RU,1693296482
10,adamstown,-25.066,-130.1015,21.62,83,99,11.0,PN,1693296483
11,avarua,-21.2078,-159.775,20.03,77,75,1.03,CK,1693296484
12,anqing,30.5092,117.0506,25.39,77,98,3.82,CN,1693296484
13,nyurba,63.2842,118.3319,26.05,29,0,2.04,RU,1693296486
14,sao felix do xingu,-6.6447,-51.995,24.65,61,45,0.04,BR,1693296487
15,invercargill,-46.4,168.35,8.9,91,40,0.45,NZ,1693296487
16,tidjikja,18.5564,-11.4271,27.92,61,93,2.85,MR,1693296487
17,kota tinggi,1.7381,103.8999,32.97,72,64,2.81,MY,1693296488
18,wailua homesteads,22.0669,-159.378,26.44,79,40,6.17,US,1693296489
19,mitu,1.1983,-70.1733,21.53,99,92,1.11,CO,1693296489
20,bethel,41.3712,-73.414,19.72,86,20,1.54,US,1693296490
21,gurupi,-11.7292,-49.0686,25.21,63,3,1.87,BR,1693296245
22,grytviken,-54.2811,-36.5092,1.09,85,97,5.48,GS,1693296491
23,enewetak,11.3474,162.3373,28.89,80,86,7.22,MH,1693296492
24,bilibino,68.0546,166.4372,8.78,77,100,2.46,RU,1693296492
25,iqaluit,63.7506,-68.5145,4.85,81,75,4.63,CA,1693296252
26,lycksele,64.5954,18.6735,15.8,88,75,2.06,SE,1693296494
27,san antonio de pale,-1.4014,5.6325,23.88,86,100,4.26,GQ,1693296495
28,laguna,38.421,-121.4238,23.51,59,0,2.57,US,1693296496
29,west island,-12.1568,96.8225,28.99,61,50,3.6,CC,1693296269
30,nagato,34.3833,131.2,29.39,70,24,6.17,JP,1693296410
31,hithadhoo,-0.6,73.0833,27.9,72,49,2.36,MV,1693296497
32,kingston,17.997,-76.7936,26.8,88,83,1.12,JM,1693296374
33,coalcoman de vazquez pallares,18.7833,-103.15,19.74,98,53,0.96,MX,1693296498
34,petropavlovsk-kamchatsky,53.0452,158.6483,14.33,82,40,2.0,RU,1693296367
35,ushuaia,-54.8,-68.3,0.65,92,100,3.63,AR,1693296499
36,la union,-5.4,-80.75,19.89,80,0,3.54,PE,1693296499
37,port-aux-francais,-49.35,70.2167,3.37,78,57,14.03,TF,1693296501
38,huarmey,-10.0681,-78.1522,18.94,85,2,2.92,PE,1693296502
39,solnechnyy,50.7214,136.6319,20.95,65,100,1.14,RU,1693296502
40,scottburgh,-30.2867,30.7532,20.15,60,0,6.4,ZA,1693296503
41,college,64.8569,-147.8028,11.61,86,75,2.06,US,1693296503
42,hammerfest,70.6634,23.6821,15.25,67,0,1.54,NO,1693296504
43,lihue,21.9789,-159.3672,26.77,75,40,6.17,US,1693296504
44,argo,37.6333,22.7333,28.21,24,4,2.04,GR,1693296505
45,port mathurin,-19.6833,63.4167,22.81,69,5,8.61,MU,1693296506
46,tiksi,71.6872,128.8694,11.22,72,51,2.71,RU,1693296506
47,whitehorse,60.7161,-135.0538,16.68,84,3,2.69,CA,1693296507
48,labytnangi,66.6572,66.4183,15.61,49,13,4.7,RU,1693296508
49,cambria,35.5641,-121.0808,21.03,51,0,3.49,US,1693296509
50,port lincoln,-34.7333,135.8667,15.4,82,66,7.17,AU,1693296510
51,salalah,17.0151,54.0924,30.05,74,75,3.6,OM,1693296510
52,port elizabeth,-33.918,25.5701,22.16,40,0,4.12,ZA,1693296347
53,nagqu,31.5,92.0,16.34,41,95,4.16,CN,1693296461
54,puerto ayora,-0.7393,-90.3518,24.19,88,40,3.13,EC,1693296511
55,kyzyl-suu,42.3414,78.0056,16.87,48,0,3.2,KG,1693296512
56,livingstone,-17.8419,25.8543,19.91,34,0,4.3,ZM,1693296512
57,margaret river,-33.95,115.0667,15.82,56,6,5.73,AU,1693296436
58,blackmans bay,-43.0167,147.3167,14.07,82,100,0.95,AU,1693296513
59,vila velha,-20.3297,-40.2925,19.97,99,100,2.57,BR,1693296514
60,fisterra,42.9049,-9.2629,18.19,81,89,4.45,ES,1693296514
61,prainha,-1.8,-53.48,23.06,69,0,1.42,BR,1693296514
62,qiziltepa,40.0331,64.85,29.53,12,0,2.55,UZ,1693296515
63,ginir,7.1333,40.7,20.35,52,87,6.15,ET,1693296516
64,papatowai,-46.5619,169.4708,6.98,93,38,2.68,NZ,1693296516
65,chukhloma,58.7525,42.6825,14.98,49,98,1.14,RU,1693296516
66,port alfred,-33.5906,26.891,21.21,64,0,3.91,ZA,1693296517
67,williston,48.147,-103.618,21.84,46,1,1.24,US,1693296517
68,dali,25.7,100.1833,20.07,73,98,1.23,CN,1693296518
69,edinburgh of the seven seas,-37.0676,-12.3116,11.18,74,78,9.86,SH,1693296518
70,nova sintra,14.8667,-24.7167,23.66,79,35,7.27,CV,1693296518
71,tolanaro,-25.0319,46.9987,20.64,62,100,5.14,MG,1693296519
72,tralee,52.2704,-9.7026,12.14,94,20,2.06,IE,1693296519
73,ust-nera,64.5667,143.2,20.63,55,74,1.88,RU,1693296520
74,thompson,55.7435,-97.8558,7.67,96,15,1.82,CA,1693296520
75,lazaro cardenas,17.9583,-102.2,26.58,86,19,0.92,MX,1693296521
76,chonchi,-42.6128,-73.8092,6.18,89,100,2.74,CL,1693296522
77,revel,43.4667,2.0,17.01,80,84,6.29,FR,1693296522
78,jamestown,42.097,-79.2353,17.79,97,75,0.89,US,1693296523
79,tejen,37.3834,60.5054,36.44,11,0,6.64,TM,1693296523
80,portland,45.5234,-122.6762,18.75,78,76,0.89,US,1693296524
81,vorgashor,67.5833,63.95,11.17,68,100,2.78,RU,1693296385
82,chaadayevka,53.1427,45.9122,17.57,44,0,6.11,RU,1693296525
83,vilyuchinsk,52.9306,158.4028,15.15,90,72,1.64,RU,1693296525
84,prado,-17.3411,-39.2208,20.6,96,97,3.27,BR,1693296527
85,nar'yan-mar,67.6713,53.087,11.08,68,100,2.37,RU,1693296527
86,taoudenni,22.6783,-3.9836,36.3,31,29,3.73,ML,1693296528
87,cabras,39.93,8.5314,23.01,56,5,10.44,IT,1693296528
88,berezovyy,51.6667,135.7,23.19,52,69,2.34,RU,1693296529
89,sume,-7.6717,-36.88,20.31,94,31,2.46,BR,1693296529
90,san patricio,28.017,-97.5169,29.91,69,1,1.73,US,1693296530
91,ribeira grande,38.5167,-28.7,23.22,94,75,5.36,PT,1693296442
92,luderitz,-26.6481,15.1594,25.11,38,0,3.93,NA,1693296530
93,udachny,66.4167,112.4,23.03,46,69,2.27,RU,1693296284
94,iskateley,67.6803,53.1512,11.19,67,100,2.33,RU,1693296531
95,vernon,50.2581,-119.2691,21.83,45,0,0.45,CA,1693296531
96,kalas,18.1667,74.8,31.32,41,86,5.15,IN,1693296532
97,san pedro,14.35,121.0167,29.57,84,75,7.2,PH,1693296246
98,jaszapati,47.5167,20.15,24.95,52,100,4.03,HU,1693296533
99,kerikeri,-35.2268,173.9474,9.39,88,61,0.44,NZ,1693296534
100,jiuquan,39.7432,98.5174,31.6,15,0,13.01,CN,1693296456
101,san pedro de cajas,-11.2511,-75.8617,3.16,90,14,1.47,PE,1693296534
102,klyuchi,52.2667,79.1667,23.73,31,0,4.44,RU,1693296535
103,boyolangu,-8.1181,111.8935,26.77,62,16,4.88,ID,1693296535
104,alesund,62.4723,6.1549,14.95,91,75,2.06,NO,1693296536
105,tura,25.5198,90.2201,30.95,62,100,1.85,IN,1693296537
106,kolonia town,6.964,158.206,28.47,75,100,3.2,FM,1693296538
107,cabo san lucas,22.8909,-109.9124,30.42,75,18,3.85,MX,1693296311
108,severo-yeniseyskiy,60.3725,93.0408,24.03,56,100,4.7,RU,1693296539
109,revelstoke,50.9832,-118.2023,17.56,57,0,0.85,CA,1693296540
110,kone,-21.0595,164.8658,20.07,80,93,2.66,NC,1693296540
111,priob'ye,62.5206,65.5964,17.53,47,99,9.07,RU,1693296540
112,bohorodchany,48.807,24.5383,29.27,39,22,2.66,UA,1693296541
113,tome acu,-2.4189,-48.1522,21.58,100,22,1.13,BR,1693296542
114,hermanus,-34.4187,19.2345,20.86,50,0,4.63,ZA,1693296543
115,sisimiut,66.9395,-53.6735,5.59,94,100,3.52,GL,1693296544
116,puerto deseado,-47.7503,-65.8938,5.78,60,44,6.05,AR,1693296546
117,priozersk,61.0393,30.1291,22.27,95,44,5.56,RU,1693296546
118,alice springs,-23.7,133.8833,29.75,8,0,3.09,AU,1693296547
119,amurzet,47.6967,131.0981,19.66,80,100,4.37,RU,1693296548
120,utrik,11.2278,169.8474,28.39,78,97,5.96,MH,1693296549
121,longyearbyen,78.2186,15.6401,7.91,76,75,5.66,SJ,1693296429
122,misratah,32.3754,15.0925,27.66,56,4,7.18,LY,1693296550
123,marsh harbour,26.5412,-77.0636,29.01,75,0,2.42,BS,1693296550
124,pangai,-19.8,-174.35,22.28,66,97,9.19,TO,1693296551
125,dalandzadgad,43.5708,104.425,25.11,19,3,3.5,MN,1693296552
126,ilulissat,69.2167,-51.1,6.01,81,100,3.6,GL,1693296553
127,novyy urengoy,66.0833,76.6333,16.28,46,100,7.34,RU,1693296553
128,vilhena,-12.7406,-60.1458,21.3,68,0,0.97,BR,1693296554
129,eyl,7.9803,49.8164,33.33,40,1,12.79,SO,1693296555
130,puerto maldonado,-12.6,-69.1833,22.36,66,16,0.59,PE,1693296556
131,yellowknife,62.456,-114.3525,16.34,95,27,3.02,CA,1693296557
132,nogliki,51.8333,143.1667,16.87,70,3,2.02,RU,1693296557
133,mamuju,-2.6748,118.8885,29.13,72,22,1.5,ID,1693296558
134,kruisfontein,-34.0033,24.7314,25.32,19,0,6.1,ZA,1693296558
135,nea alikarnassos,35.3333,25.1667,32.19,53,0,2.06,GR,1693296558
136,durango,24.8333,-104.8333,17.05,43,96,1.99,MX,1693296559
137,haiku-pauwela,20.9219,-156.3051,25.02,71,17,4.02,US,1693296560
138,sal rei,16.1833,-22.9167,28.11,74,75,4.63,CV,1693296560
139,anadyr,64.75,177.4833,9.28,87,75,6.0,RU,1693296561
140,uvinza,-5.1036,30.3911,28.47,30,23,4.92,TZ,1693296561
141,naze,28.3667,129.4833,27.09,79,17,4.53,JP,1693296449
142,hasaki,35.7333,140.8333,34.06,79,96,7.78,JP,1693296351
143,kuala terengganu,5.3302,103.1408,32.21,50,81,3.31,MY,1693296510
144,afaahiti,-17.75,-149.2833,23.93,88,100,8.91,PF,1693296563
145,kathu,7.9178,98.3332,30.9,78,87,8.37,TH,1693296564
146,al-hamdaniya,36.2715,43.3737,34.82,25,30,5.79,IQ,1693296564
147,albany,42.6001,-73.9662,19.23,94,99,1.15,US,1693296521
148,sabang,5.8933,95.3214,28.21,78,84,10.39,ID,1693296566
149,lupane,-18.9315,27.807,19.28,34,0,4.91,ZW,1693296567
150,toulepleu guere,6.574,-8.4259,22.39,98,100,0.63,CI,1693296567
151,aasiaat,68.7098,-52.8699,1.96,92,6,4.49,GL,1693296568
152,arraial do cabo,-22.9661,-42.0278,19.27,85,100,7.99,BR,1693296568
153,port saint john's,-31.6229,29.5448,23.04,39,12,3.89,ZA,1693296569
154,hamilton,39.1834,-84.5333,17.17,89,0,2.06,US,1693296570
155,praia da vitoria,38.7333,-27.0667,23.2,90,72,4.29,PT,1693296571
156,kununurra,-15.7667,128.7333,34.99,15,82,4.63,AU,1693296445
157,san jorge,-31.8962,-61.8598,5.47,55,0,3.52,AR,1693296571
158,ha'il,27.5219,41.6907,31.85,18,0,4.8,SA,1693296573
159,horta,38.5333,-28.6333,22.8,95,75,5.81,PT,1693296573
160,tvoroyri,61.5556,-6.8111,11.13,90,84,3.24,FO,1693296573
161,kapa'a,22.0752,-159.319,27.18,76,40,6.17,US,1693296574
162,qaqortoq,60.7167,-46.0333,8.42,58,100,0.48,GL,1693296574
163,tarauaca,-8.1614,-70.7656,21.69,98,12,1.07,BR,1693296575
164,muroto-misakicho,33.2833,134.15,28.27,75,15,3.83,JP,1693296575
165,codrington,-38.2667,141.9667,18.29,59,100,5.77,AU,1693296577
166,magione,43.1439,12.2069,20.11,84,100,1.29,IT,1693296578
167,farasan,16.7022,42.1183,31.66,69,93,1.05,SA,1693296578
168,nema,57.5067,50.5011,16.51,51,6,5.73,RU,1693296579
169,mili,6.0815,171.735,27.5,79,100,4.24,MH,1693296579
170,usinsk,65.9939,57.5281,13.44,61,43,1.89,RU,1693296580
171,revda,56.801,59.9303,8.45,94,100,5.67,RU,1693296582
172,greenville,35.6127,-77.3663,24.09,99,40,0.0,US,1693296582
173,porto novo,6.4965,2.6036,26.74,77,100,2.64,BJ,1693296583
174,st. john's,47.5649,-52.7093,15.54,92,0,3.13,CA,1693296327
175,saipan,15.1355,145.701,27.39,83,100,1.54,MP,1693296584
176,hawaiian paradise park,19.5933,-154.9731,21.73,97,100,3.09,US,1693296584
177,moron,-34.6534,-58.6198,11.65,65,97,2.31,AR,1693296585
178,cuamba,-14.8031,36.5372,22.74,38,94,4.82,MZ,1693296585
179,mogocha,53.7333,119.7667,22.88,29,95,2.08,RU,1693296586
180,mount pleasant,32.7941,-79.8626,26.11,96,0,0.0,US,1693296586
181,askiz,53.1319,90.5264,21.09,66,100,6.11,RU,1693296587
182,stanley,54.868,-1.6985,14.87,86,20,5.14,GB,1693296587
183,kapuskasing,49.4169,-82.4331,9.05,100,100,4.12,CA,1693296588
184,birobidzhan,48.8,132.95,21.09,81,100,1.69,RU,1693296327
185,shasta lake,40.6804,-122.3708,21.4,55,0,2.41,US,1693296588
186,agua branca,-5.8922,-42.6361,21.52,81,46,1.58,BR,1693296589
187,fort mcmurray,56.7268,-111.381,16.73,100,0,1.54,CA,1693296590
188,capitan bado,-23.2667,-55.5333,18.11,58,100,5.33,PY,1693296590
189,prince george,53.9166,-122.753,13.47,93,0,0.75,CA,1693296590
190,yantarnyy,54.8717,19.9381,15.42,78,100,7.56,RU,1693296592
191,maceio,-9.6658,-35.7353,22.69,100,20,1.54,BR,1693296593
192,nemuro,43.3236,145.575,17.19,86,58,4.04,JP,1693296311
193,boundiali,9.5217,-6.4869,21.14,98,100,0.11,CI,1693296593
194,arandas,20.7,-102.35,13.53,89,81,1.34,MX,1693296594
195,mulchen,-37.7167,-72.2333,8.62,99,99,0.38,CL,1693296594
196,zlatni pyasatsi,43.285,28.0418,34.83,40,0,3.09,BG,1693296595
197,new norfolk,-42.7826,147.0587,14.72,82,100,1.07,AU,1693296595
198,kodiak,57.79,-152.4072,12.73,100,100,5.14,US,1693296597
199,lae,-6.7221,146.9847,25.59,87,98,3.88,PG,1693296598
200,erenhot,43.6475,111.9767,24.78,24,50,2.41,CN,1693296599
201,san jose del cabo,23.0589,-109.6977,30.41,79,18,0.71,MX,1693296599
202,uliastay,47.7417,96.8444,26.54,20,100,4.41,MN,1693296600
203,yerofey pavlovich,53.9667,121.9667,23.12,30,55,2.14,RU,1693296600
204,trunovskoye,45.4878,42.1358,25.72,34,0,5.23,RU,1693296601
205,yatou,37.15,122.3833,22.73,80,100,6.31,CN,1693296601
206,saudarkrokur,65.7461,-19.6394,9.11,80,100,0.12,IS,1693296602
207,las lajitas,-24.6833,-64.25,12.03,42,25,1.67,AR,1693296603
208,vila franca do campo,37.7167,-25.4333,22.23,85,26,3.13,PT,1693296604
209,sola,-13.8833,167.55,25.98,85,99,6.36,VU,1693296605
210,fale old settlement,-9.3852,-171.2468,28.07,80,61,7.17,TK,1693296606
211,lebork,54.5392,17.7501,16.93,100,100,2.52,PL,1693296607
212,katabu,-4.9333,122.5167,29.71,49,5,4.91,ID,1693296608
213,choyr,46.3611,108.3611,23.79,32,14,3.27,MN,1693296608
214,hambergen,53.3167,8.8333,15.53,93,100,1.12,DE,1693296608
215,labuan,5.2767,115.2417,29.52,70,100,5.42,MY,1693296609
216,punta arenas,-53.15,-70.9167,3.13,83,100,3.87,CL,1693296609
217,darwin,-12.4611,130.8418,29.99,37,0,5.66,AU,1693296311
218,kupino,54.3663,77.2981,22.17,34,14,6.34,RU,1693296610
219,strugi-krasnyye,58.2675,29.1114,18.85,58,62,2.89,RU,1693296610
220,damavand,35.7178,52.065,26.49,23,0,4.68,IR,1693296611
221,sanctuary point,-35.1114,150.629,17.96,71,26,3.69,AU,1693296611
222,phongsali,21.6833,102.1058,19.85,97,99,0.64,LA,1693296612
223,howard springs,-12.497,131.047,29.95,43,0,2.39,AU,1693296613
224,tromso,69.6496,18.957,13.01,88,75,1.03,NO,1693296613
225,petra,30.3222,35.4793,23.54,47,0,4.79,JO,1693296614
226,ilhabela,-23.7781,-45.3581,18.61,90,83,3.33,BR,1693296615
227,constantia,44.1833,28.65,34.28,47,4,3.07,RO,1693296615
228,altamirano,16.8833,-92.15,13.61,99,100,1.13,MX,1693296616
229,selfoss,63.9331,-20.9971,7.8,82,8,2.53,IS,1693296616
230,soanierana ivongo,-16.9167,49.5833,22.8,83,40,4.95,MG,1693296617
231,olonkinbyen,70.9221,-8.7187,4.61,87,88,4.54,SJ,1693296617
232,tomatlan,19.9333,-105.25,24.18,96,25,1.66,MX,1693296618
233,quellon,-43.1167,-73.6167,7.05,86,100,5.92,CL,1693296618
234,gambela,8.25,34.5833,31.94,42,68,1.66,ET,1693296619
235,borazjan,29.2666,51.2159,40.67,19,0,2.33,IR,1693296620
236,sao miguel do araguaia,-13.275,-50.1628,24.39,71,62,1.47,BR,1693296620
237,port augusta,-32.5,137.7667,24.06,22,93,4.55,AU,1693296621
238,susuman,62.7833,148.1667,18.27,54,7,2.38,RU,1693296621
239,kolokani,13.5728,-8.0339,23.06,91,100,2.38,ML,1693296621
240,dongola,19.1667,30.4833,40.76,12,100,5.12,SD,1693296622
241,queenstown,-31.8976,26.8753,20.72,15,0,3.25,ZA,1693296360
242,saldanha,-33.0117,17.9442,23.4,34,0,10.5,ZA,1693296623
243,holualoa,19.6228,-155.9522,24.91,87,100,4.12,US,1693296624
244,ete,7.05,7.45,24.5,87,100,1.96,NG,1693296624
245,troy,42.6056,-83.1499,14.94,91,0,0.45,US,1693296626
246,tsiombe,-25.3,45.4833,21.45,53,77,8.42,MG,1693296627
247,berdigestyakh,62.0989,126.6992,26.66,39,3,2.19,RU,1693296627
248,bucerias,20.75,-105.3333,26.1,85,100,3.36,MX,1693296627
249,thunder bay,48.4001,-89.3168,13.95,94,100,0.0,CA,1693296628
250,batesville,35.7698,-91.641,18.86,89,0,1.54,US,1693296628
251,zolochiv,49.806,24.8944,29.53,37,99,6.87,UA,1693296630
252,carnarvon,-24.8667,113.6333,24.39,48,3,7.03,AU,1693296331
253,santa catalina,9.3337,122.8637,27.08,85,100,4.76,PH,1693296631
254,citra,29.4119,-82.1098,25.51,100,100,1.39,US,1693296632
255,lorengau,-2.0226,147.2712,27.87,80,100,5.93,PG,1693296632
256,antsiranana,-12.2787,49.2917,29.31,48,9,9.04,MG,1693296633
257,bayanaul,50.7889,75.6956,22.46,27,46,5.95,KZ,1693296634
258,thinadhoo,0.5333,72.9333,27.89,73,54,3.43,MV,1693296635
259,banyo,6.75,11.8167,23.66,74,69,1.23,CM,1693296635
260,villa regina,-39.1,-67.0667,7.77,22,0,4.57,AR,1693296636
261,port-vila,-17.7338,168.3219,21.78,94,100,7.72,VU,1693296636
262,pisco,-13.7,-76.2167,15.57,88,5,2.06,PE,1693296637
263,hsinchu,24.8036,120.9686,34.99,71,100,2.24,TW,1693296241
264,ulanhot,46.0833,122.0833,19.76,74,100,6.56,CN,1693296638
265,karratha,-20.7377,116.8463,30.84,21,5,4.67,AU,1693296638
266,aykhal,66.0,111.5,22.71,40,90,5.16,RU,1693296638
267,flying fish cove,-10.4217,105.6791,25.82,78,75,5.14,CX,1693296639
268,ceres,37.5949,-120.9577,22.25,54,0,2.57,US,1693296640
269,tamiahua,21.2667,-97.45,25.12,85,0,2.91,MX,1693296640
270,dharchula,29.85,80.5333,29.19,56,2,3.26,IN,1693296641
271,fortuna,40.5982,-124.1573,15.19,97,100,3.6,US,1693296642
272,sitka,57.0531,-135.33,15.94,88,0,0.0,US,1693296642
273,loango,-4.6719,11.8312,23.93,81,38,2.92,CG,1693296643
274,polyarnyy,69.1989,33.4478,12.87,74,100,5.63,RU,1693296643
275,olyokminsk,60.3736,120.4264,27.66,27,0,0.56,RU,1693296644
276,guapimirim,-22.5372,-42.9819,17.84,98,92,0.96,BR,1693296645
277,georgetown,5.4112,100.3354,30.96,66,20,2.57,MY,1693296645
278,san andres,12.5847,-81.7006,28.01,89,20,1.54,CO,1693296646
279,bouafle,6.9904,-5.7442,22.27,99,100,0.52,CI,1693296646
280,bilozerka,46.6248,32.4425,34.54,29,1,3.98,UA,1693296646
281,veydelevka,50.1521,38.4492,23.28,35,38,2.75,RU,1693296647
282,haparanda,65.8355,24.1368,11.03,91,100,4.08,SE,1693296647
283,daru,-9.0763,143.2092,24.38,82,76,7.09,PG,1693296648
284,vila do maio,15.1333,-23.2167,27.44,77,99,5.56,CV,1693296648
285,takanosu,40.2219,140.3694,29.54,71,48,1.9,JP,1693296490
286,vadso,70.0744,29.7487,13.49,87,20,7.72,NO,1693296649
287,nangomba,-10.9,38.5,27.56,35,6,4.85,TZ,1693296649
288,talnakh,69.4865,88.3972,15.67,59,36,2.98,RU,1693296650
289,labrador city,52.9463,-66.9114,8.51,80,40,3.01,CA,1693296651
290,vanino,49.0869,140.2543,19.24,68,97,1.12,RU,1693296652
291,ta`u,-14.2336,-169.5144,26.21,81,98,10.15,AS,1693296652
292,cooma,-36.2333,149.1333,11.26,70,95,1.38,AU,1693296653
293,weno,7.4515,151.8468,26.97,83,100,3.6,FM,1693296654
294,eureka,40.8021,-124.1637,15.41,95,0,1.63,US,1693296654
295,progreso,21.2833,-89.6667,26.17,88,8,3.11,MX,1693296656
296,bandar lampung,-5.4254,105.258,28.52,66,73,3.28,ID,1693296646
297,seeb,23.6703,58.1891,33.05,75,5,6.17,OM,1693296657
298,kuanda,56.3161,116.0806,24.27,33,20,0.8,RU,1693296658
299,saint-pierre,-21.3393,55.4781,24.82,73,75,9.26,RE,1693296658
300,anna regina,7.2644,-58.5077,26.6,87,29,3.04,GY,1693296658
301,temerluh,3.4506,102.4176,31.66,80,72,2.68,MY,1693296597
302,idri,27.5,13.2667,37.36,16,6,2.23,LY,1693296659
303,ixtapa,20.7,-105.2,25.68,85,99,0.45,MX,1693296662
304,plymouth,41.8334,-70.8328,18.7,87,0,0.0,US,1693296663
305,afif,23.9065,42.9172,37.23,12,69,5.42,SA,1693296663
306,broome,42.2506,-75.833,18.67,96,20,2.57,US,1693296664
307,vilyuysk,63.7553,121.6247,27.06,32,2,2.69,RU,1693296665
308,ust-tsilma,65.441,52.1498,11.46,70,100,1.17,RU,1693296665
309,fort st. john,56.2499,-120.8529,14.34,61,39,1.48,CA,1693296666
310,guerrero negro,27.9769,-114.0611,21.87,79,81,3.13,MX,1693296667
311,farah,32.5,62.5,32.28,9,0,2.37,AF,1693296667
312,pozoblanco,38.3791,-4.8483,21.82,30,41,0.73,ES,1693296667
313,rikaze,29.25,88.8833,22.0,27,70,3.46,CN,1693296668
314,qui nhon,13.7667,109.2333,35.06,51,89,4.81,VN,1693296668
315,kokopo,-4.352,152.2633,26.06,82,34,7.13,PG,1693296669
316,nuuk,64.1835,-51.7216,8.34,87,75,7.72,GL,1693296661
317,tazovsky,67.4667,78.7,14.7,50,5,4.8,RU,1693296671
318,broken hill,-31.95,141.4333,21.76,28,2,4.28,AU,1693296420
319,badger,64.8,-147.5333,11.56,90,75,2.06,US,1693296672
320,perugorria,-29.3413,-58.6106,6.68,71,0,3.4,AR,1693296672
321,acarau,-2.8856,-40.12,23.63,89,2,4.22,BR,1693296672
322,tangalle,6.024,80.7911,30.62,63,100,7.3,LK,1693296673
323,saint-joseph,-21.3667,55.6167,24.21,74,25,5.32,RE,1693296674
324,sheboygan falls,43.732,-87.8221,19.08,83,75,3.6,US,1693296675
325,ancud,-41.8697,-73.8203,7.6,81,100,5.71,CL,1693296422
326,mae sai,20.4335,99.8762,25.5,98,100,0.9,TH,1693296423
327,rongelap,11.1635,166.8941,28.84,79,6,6.52,MH,1693296676
328,miramar beach,30.3744,-86.3586,27.01,79,20,4.12,US,1693296677
329,verkhnevilyuysk,63.4453,120.3167,26.63,33,0,2.38,RU,1693296677
330,kupiskis,55.8333,24.9667,19.1,62,99,1.97,LT,1693296678
331,bargi,22.9833,79.8667,29.43,63,72,3.8,IN,1693296679
332,zeven,53.3,9.2833,13.88,81,100,1.05,DE,1693296679
333,gerash,27.6652,54.1371,37.08,11,0,5.04,IR,1693296679
334,anori,-3.7728,-61.6442,24.48,54,0,1.32,BR,1693296680
335,farmville,37.3021,-78.3919,22.51,98,100,0.0,US,1693296247
336,atafu village,-8.5421,-172.5159,28.47,79,16,6.65,TK,1693296681
337,hobyo,5.3505,48.5268,29.43,61,1,11.77,SO,1693296682
338,jurm,36.8648,70.8342,29.02,13,0,3.36,AF,1693296683
339,isangel,-19.55,169.2667,21.56,85,100,6.22,VU,1693296683
340,ataq,14.5377,46.8319,33.64,29,15,5.89,YE,1693296684
341,banda aceh,5.5577,95.3222,30.59,64,68,7.97,ID,1693296590
342,laurel,39.0993,-76.8483,22.99,93,100,3.09,US,1693296686
343,kachkanar,58.7,59.4948,8.06,94,100,5.66,RU,1693296686
344,linhares,-19.3911,-40.0722,19.98,95,97,2.7,BR,1693296688
345,linxi,39.7,118.4333,27.62,47,0,3.0,CN,1693296689
346,ambon,-3.6954,128.1814,25.46,77,91,6.93,ID,1693296393
347,colonia,50.9333,6.95,16.64,83,75,1.54,DE,1693296689
348,santa elena de uairen,4.6167,-61.1333,21.4,76,68,0.69,VE,1693296690
349,george town,5.4112,100.3354,30.96,66,20,2.57,MY,1693296060
350,carolina,18.3808,-65.9574,28.35,89,20,0.0,PR,1693296691
351,puerto baquerizo moreno,-0.9,-89.6,23.5,80,100,5.44,EC,1693296691
352,daruvar,45.5906,17.225,24.78,51,96,3.23,HR,1693296537
353,aral,40.5156,81.2636,31.73,16,94,4.72,CN,1693296692
354,coruripe,-10.1256,-36.1756,23.55,91,16,3.78,BR,1693296693
355,lapinlahti,65.5833,30.5667,11.4,95,100,6.62,RU,1693296693
356,dalmatovo,56.26,62.9362,13.49,70,100,7.77,RU,1693296694
357,khandyga,62.6667,135.6,23.98,57,24,0.93,RU,1693296694
358,wynyard,-41.0,145.7167,12.15,91,100,1.88,AU,1693296624
359,shenandoah,30.4013,-91.0009,25.53,94,74,2.12,US,1693296695
360,tamanrasset,22.785,5.5228,30.95,23,0,1.03,DZ,1693296695
361,hadibu,12.65,54.0333,29.5,63,21,11.23,YE,1693296696
362,saryaghash,41.45,69.1667,29.96,15,2,1.96,KZ,1693296696
363,shalkar,47.8288,59.6258,18.63,31,29,5.76,KZ,1693296696
364,ust'-kulom,61.6864,53.6902,15.98,50,13,2.98,RU,1693296697
365,al ghayzah,16.2079,52.176,30.6,66,14,4.14,YE,1693296697
366,kaduy,59.2,37.15,9.76,92,100,2.3,RU,1693296698
367,nizhniy kuranakh,58.8353,125.4869,23.78,56,32,1.58,RU,1693296698
368,takayama,36.1333,137.25,27.71,65,1,2.41,JP,1693296699
369,cidreira,-30.1811,-50.2056,12.1,79,2,4.83,BR,1693296699
370,saba,15.4667,-86.25,21.9,87,96,1.41,HN,1693296700
371,launceston,-41.45,147.1667,12.86,82,100,7.2,AU,1693296614
372,portoferraio,42.8115,10.3146,20.94,85,100,6.35,IT,1693296701
373,metlili chaamba,32.2667,3.6333,26.46,20,80,2.8,DZ,1693296702
374,mammoth lakes,37.6485,-118.9721,16.3,46,0,1.79,US,1693296702
375,kirsanov,52.6549,42.7224,16.3,39,3,3.82,RU,1693296703
376,chabahar,25.2919,60.643,28.88,74,1,6.9,IR,1693296704
377,amos,48.5669,-78.1162,11.68,73,100,2.21,CA,1693296704
378,pemba,-12.974,40.5178,25.58,51,58,7.63,MZ,1693296705
379,jiangzi,28.95,89.6333,16.79,29,66,2.98,CN,1693296705
380,sebastopol,44.6,33.5333,29.14,55,0,0.79,UA,1693296706
381,ilha solteira,-20.4328,-51.3425,18.57,66,100,3.96,BR,1693296706
382,frederiksvaerk,55.9707,12.0225,17.78,79,100,0.89,DK,1693296707
383,i-n-salah,27.1935,2.4607,35.95,24,76,2.46,DZ,1693296707
384,castillos,-34.1667,-53.8333,7.48,95,100,1.06,UY,1693296708
385,pitimbu,-7.4706,-34.8086,24.33,85,6,2.54,BR,1693296708
386,darovskoy,58.77,47.9564,15.19,52,0,3.67,RU,1693296709
387,dunedin,-45.8742,170.5036,10.45,80,96,1.79,NZ,1693296709
388,newman,37.3138,-121.0208,22.25,71,0,1.88,US,1693296710
389,novi ligure,44.7608,8.7896,21.43,72,32,0.89,IT,1693296710
390,corner brook,48.9667,-57.9484,10.09,98,9,2.04,CA,1693296711
391,puerto leguizamo,-0.1934,-74.7819,22.58,97,99,0.74,CO,1693296711
392,harnosand,62.6323,17.9379,17.0,64,13,4.25,SE,1693296669
393,kristiansund,63.1115,7.732,13.36,88,75,3.09,NO,1693296712
394,mungwi,-10.1732,31.3694,21.34,45,71,5.08,ZM,1693296712
395,tamandare,-8.7597,-35.1047,24.17,90,26,3.2,BR,1693296712
396,slave lake,55.2834,-114.769,12.99,69,100,0.0,CA,1693296713
397,lagos,6.5833,3.75,25.71,88,100,2.18,NG,1693296645
398,ogre,56.8162,24.614,15.91,64,90,1.28,LV,1693296714
399,buala,-8.145,159.5921,26.52,83,100,4.09,SB,1693296714
400,happy valley-goose bay,53.3168,-60.3315,13.17,88,75,2.06,CA,1693296714
401,sangla hill,31.7167,73.3833,38.45,29,0,1.25,PK,1693296715
402,zandvoort,52.3749,4.5341,18.86,83,20,2.57,NL,1693296715
403,tema,5.667,-0.0166,26.15,78,88,3.3,GH,1693296501
404,concepcion del oro,24.6333,-101.4167,17.83,44,70,1.97,MX,1693296716
405,figuig (centre),32.1089,-1.2286,27.77,17,36,3.06,MA,1693296717
406,dryden,49.7833,-92.7503,13.16,94,100,0.0,CA,1693296717
407,paita,-5.0892,-81.1144,19.92,82,0,4.76,PE,1693296554
408,douz,33.4663,9.0203,27.72,52,0,7.79,TN,1693296718
409,vallendar,50.4,7.6167,17.98,85,100,2.16,DE,1693296719
410,borogontsy,62.6683,131.1683,25.75,48,23,1.17,RU,1693296722
411,gadzhiyevo,69.2551,33.3362,12.82,74,100,5.57,RU,1693296722
412,colares,38.7992,-9.4469,21.64,74,20,15.65,PT,1693296723
413,fort bragg,35.139,-79.006,24.39,96,75,0.45,US,1693296724
414,boden,65.8252,21.6886,13.0,93,100,1.61,SE,1693296725
415,timimoun,29.2639,0.231,33.21,19,1,1.03,DZ,1693296726
416,albacete,38.8333,-2.0,19.55,42,0,3.09,ES,1693296727
417,pamplona,42.8169,-1.6432,15.95,72,40,4.12,ES,1693296728
418,ixtapa-zihuatanejo,17.6333,-101.55,26.99,86,47,1.31,MX,1693296729
419,bria,6.5423,21.9863,27.35,75,8,0.9,CF,1693296729
420,danilovgrad,42.5538,19.1461,24.71,77,69,2.89,ME,1693296730
421,waingapu,-9.6567,120.2641,29.09,50,5,7.93,ID,1693296730
422,beruniy,41.6911,60.7525,29.98,15,0,6.17,UZ,1693296731
423,midland,31.9974,-102.0779,24.03,55,0,3.09,US,1693296731
424,yuzhno-kurilsk,44.0306,145.8556,16.23,86,14,3.3,RU,1693296733
425,agat village,13.3886,144.6585,25.52,93,100,2.06,GU,1693296733
426,east london,-33.0153,27.9116,22.52,43,0,1.54,ZA,1693296733
427,mina clavero,-31.721,-65.0062,9.8,38,0,1.99,AR,1693296735
428,chulakkurgan,43.765,69.1814,27.6,17,21,7.03,KZ,1693296736
429,kokshetau,53.2775,69.3883,17.18,55,75,12.0,KZ,1693296737
430,yarkovo,57.4028,67.0786,18.3,52,70,3.72,RU,1693296739
431,kindu,-2.95,25.95,32.33,39,9,1.27,CD,1693296739
432,lanzhou,36.0564,103.7922,27.8,21,0,3.39,CN,1693296545
433,tshabong,-26.05,22.45,17.97,32,19,9.46,BW,1693296740
434,sarnia,42.9787,-82.4041,12.64,97,0,1.54,CA,1693296740
435,christchurch,-43.5333,172.6333,8.56,73,6,2.06,NZ,1693296361
436,charters towers,-20.1,146.2667,23.0,26,0,4.01,AU,1693296741
437,manokwari,-0.8667,134.0833,27.65,81,54,1.36,ID,1693296742
438,salekhard,66.53,66.6019,15.86,48,9,4.91,RU,1693296670
439,vuktyl,63.8567,57.3094,15.34,50,8,3.11,RU,1693296743
440,villa union,23.2,-106.2333,28.28,94,100,0.0,MX,1693296744
441,mayahi,13.9553,7.6712,30.22,46,20,6.66,NE,1693296744
442,peruibe,-24.32,-46.9983,15.29,95,95,2.34,BR,1693296744
443,bakhchysarai,44.75,33.8667,32.97,29,0,4.52,UA,1693296745
444,betong,5.7743,101.0723,27.48,80,32,2.23,TH,1693296746
445,portage la prairie,49.9728,-98.2926,17.28,63,9,5.69,CA,1693296746
446,capitao poco,-1.7464,-47.0594,21.32,99,23,1.85,BR,1693296747
447,dolores,-36.3132,-57.6792,6.02,90,99,3.12,AR,1693296708
448,altsasu,42.9,-2.1652,16.9,84,79,3.38,ES,1693296748
449,shache,38.4167,77.2406,27.46,17,30,1.36,CN,1693296676
450,kismayo,-0.3582,42.5454,27.65,66,13,8.23,SO,1693296748
451,caldwell,43.6629,-116.6874,26.21,57,0,2.57,US,1693296749
452,xiongzhou,25.1167,114.3,24.24,88,100,1.75,CN,1693296749
453,hirara,24.8,125.2833,29.15,89,75,4.12,JP,1693296750
454,otjimbingwe,-22.35,16.1333,25.66,35,4,8.47,NA,1693296750
455,jwaneng,-24.6004,24.7303,16.38,35,59,7.66,BW,1693296750
456,pangkalanbuun,-2.6833,111.6167,32.47,44,88,2.73,ID,1693296751
457,jalapa,19.5333,-96.9167,14.92,86,8,3.11,MX,1693296751
458,callao,-12.0667,-77.15,20.4,73,100,3.6,PE,1693296752
459,acapulco de juarez,16.8634,-99.8901,25.9,94,75,1.03,MX,1693296752
460,uturoa,-16.7333,-151.4333,25.24,82,79,9.88,PF,1693296753
461,mersa matruh,31.3525,27.2453,30.06,56,0,5.9,EG,1693296754
462,mount gambier,-37.8333,140.7667,18.35,49,100,5.14,AU,1693296629
463,kabalo,-6.05,26.9167,31.5,26,11,5.22,CD,1693296755
464,batouri,4.4333,14.3667,23.79,90,99,1.25,CM,1693296755
465,camocim,-2.9022,-40.8411,22.86,93,6,4.08,BR,1693296756
466,kertih,4.5141,103.4483,28.66,82,96,3.59,MY,1693296757
467,chuguyevka,44.1653,133.8633,13.1,96,100,2.56,RU,1693296757
468,sosnovoborsk,56.1325,93.3589,28.79,49,94,4.01,RU,1693296758
469,igarka,67.4667,86.5833,16.56,58,100,6.68,RU,1693296759
470,shar'ya,58.3686,45.5144,15.32,49,2,2.18,RU,1693296759
471,prince rupert,54.3161,-130.3201,16.05,91,100,2.57,CA,1693296760
472,businga,3.3333,20.8833,27.42,68,97,1.01,CD,1693296761
473,villa gesell,-37.2639,-56.973,8.92,91,100,4.45,AR,1693296761
474,turpan,42.9333,89.1667,39.41,12,100,5.34,CN,1693296762
475,chengde,40.9725,117.9361,27.28,30,4,3.58,CN,1693296762
476,mugia,43.1041,-9.2179,18.42,80,84,4.66,ES,1693296763
477,axim,4.8699,-2.2405,25.57,83,90,2.53,GH,1693296763
478,as sulaymaniyah,35.5611,45.4375,33.61,17,0,7.46,IQ,1693296764
479,luau,-10.7073,22.2247,25.49,32,78,4.31,AO,1693296765
480,xai-xai,-25.0519,33.6442,21.82,59,90,4.26,MZ,1693296765
481,olavarria,-36.8927,-60.3225,5.14,69,89,3.23,AR,1693296766
482,al muwayh,22.4333,41.7583,37.52,8,81,6.09,SA,1693296767
483,thakhek,17.4103,104.8307,28.91,80,100,1.67,LA,1693296768
484,sukumo,32.9333,132.7333,28.43,75,100,2.93,JP,1693296769
485,coahuayana de hidalgo,18.7,-103.6583,25.8,93,65,1.32,MX,1693296769
486,cadillac,44.2519,-85.4012,9.89,88,19,3.6,US,1693296770
487,nova vicosa,-17.8919,-39.3719,21.93,93,100,4.51,BR,1693296771
488,ierapetra,35.01,25.7353,29.52,57,0,3.13,GR,1693296772
489,mpanda,-6.3655,31.0409,27.89,29,83,4.26,TZ,1693296772
490,sao vicente,-23.9631,-46.3919,19.04,26,29,0.45,BR,1693296773
491,moyale,3.5167,39.0584,23.55,51,80,8.47,KE,1693296773
492,nosy varika,-20.5833,48.5333,19.75,89,100,6.19,MG,1693296774
493,novo aripuana,-5.1206,-60.3797,23.98,59,0,1.18,BR,1693296774
494,panaba,21.2833,-88.2667,24.76,96,28,3.45,MX,1693296775
495,berezovo,63.9381,65.0419,16.48,45,28,6.91,RU,1693296777
496,khanty-mansiysk,61.0042,69.0019,13.06,100,75,4.02,RU,1693296777
497,cuatro cienegas de carranza,26.9833,-102.0833,26.22,51,1,1.91,MX,1693296778
498,richards bay,-28.783,32.0377,21.77,51,3,4.48,ZA,1693296779
499,kargat,55.1956,80.2811,21.68,44,23,5.24,RU,1693296780
500,cold lake,54.4502,-110.2017,13.97,100,0,1.03,CA,1693296781
501,tagiura,32.8817,13.3506,26.94,55,2,3.89,LY,1693296782
502,luwuk,-0.9516,122.7875,28.28,65,11,4.62,ID,1693296783
503,kailua-kona,19.6406,-155.9956,26.98,84,100,4.12,US,1693296784
504,cortez,37.3489,-108.5859,18.72,64,0,4.12,US,1693296785
505,korgan,40.8247,37.3467,23.9,54,100,3.26,TR,1693296786
506,jequie,-13.8575,-40.0836,20.79,94,86,0.55,BR,1693296635
507,mananjary,-21.2167,48.3333,19.35,86,100,5.87,MG,1693296787
508,naifaru,5.4444,73.3657,25.97,87,100,12.37,MV,1693296788
509,chul'man,56.8479,124.9104,19.75,58,79,1.64,RU,1693296789
510,chimoio,-19.1164,33.4833,16.92,72,75,4.96,MZ,1693296789
511,gao,16.6362,1.637,32.53,38,97,2.98,ML,1693296789
512,fort wellington,6.4,-57.6,25.68,89,16,4.3,GY,1693296790
513,nadi,-17.8,177.4167,24.0,69,75,3.09,FJ,1693296790
514,bhamo,24.2667,97.2333,30.47,80,95,1.55,MM,1693296710
515,diawara,15.022,-12.5437,25.87,83,13,3.24,SN,1693296791
516,qamdo,31.1667,97.2333,15.25,42,88,1.53,CN,1693296791
517,dawson creek,55.7666,-120.2362,18.65,71,0,0.0,CA,1693296791
518,tual,-5.6667,132.75,24.82,88,15,10.62,ID,1693296792
519,zuni pueblo,35.0725,-108.8506,14.35,42,0,4.27,US,1693296792
520,conduaga,8.862,117.4893,29.7,67,100,5.52,PH,1693296793
521,veraval,20.9,70.3667,28.35,70,90,4.74,IN,1693296793
522,malango,-2.9627,119.9001,26.4,60,20,2.19,ID,1693296794
523,las tablas,7.7667,-80.2833,26.21,99,70,1.51,PA,1693296795
524,pasni,25.2631,63.471,27.53,79,0,5.49,PK,1693296795
525,sungailiat,-1.85,106.1333,30.35,56,75,6.41,ID,1693296797
526,torghay,49.6339,63.4981,12.74,72,100,2.76,KZ,1693296797
527,san pedro pochutla,15.7333,-96.4667,24.84,89,100,1.2,MX,1693296797
528,navapolatsk,55.5363,28.6424,20.99,57,61,1.31,BY,1693296798
529,la ronge,55.1001,-105.2842,16.14,82,0,2.57,CA,1693296798
530,kulhudhuffushi,6.6221,73.07,24.82,94,100,11.8,MV,1693296798
531,lata,40.1629,-8.3327,18.23,80,33,2.0,PT,1693296799
532,graaff-reinet,-32.2522,24.5308,20.51,40,0,6.25,ZA,1693296799
533,senise,40.1471,16.2889,23.28,49,52,6.33,IT,1693296800
534,thief river falls,48.1191,-96.1812,12.96,94,0,1.54,US,1693296800
535,fortaleza,-3.7227,-38.5247,25.07,88,40,2.06,BR,1693296801
536,port hueneme,34.1478,-119.1951,29.18,92,0,1.54,US,1693296801
537,kuressaare,58.2481,22.5039,20.57,87,20,3.6,EE,1693296802
538,zwedru,6.0667,-8.1281,22.97,96,99,0.85,LR,1693296803
539,arkhangel'sk,64.5401,40.5433,14.06,53,100,4.87,RU,1693296700
540,saint-philippe,-21.3585,55.7679,24.77,76,18,4.75,RE,1693296806
541,kalamata,37.0389,22.1142,30.87,45,20,1.79,GR,1693296705
542,namibe,-15.1961,12.1522,21.41,80,64,1.17,AO,1693296807
543,hami,42.8,93.45,37.19,8,62,14.81,CN,1693296520
544,ciudad bolivar,8.1222,-63.5497,25.84,81,0,3.19,VE,1693296808
545,pizarro,4.9533,-77.366,25.72,87,54,0.27,CO,1693296809
546,kandahar,31.0,65.75,33.07,7,0,3.73,AF,1693296809
547,kargopol',61.5071,38.9456,11.85,65,100,4.06,RU,1693296810
548,forster,-32.1667,152.5167,15.16,90,1,4.11,AU,1693296811
549,antonio enes,-16.2325,39.9086,25.3,59,99,7.75,MZ,1693296811
550,tofol,5.3248,163.0078,28.41,78,99,3.71,FM,1693296812
551,banlung,13.7468,107.0045,28.65,69,100,2.04,KH,1693296812
552,ciudad insurgentes,25.2625,-111.7753,26.19,69,58,2.87,MX,1693296812
553,shawano,44.7822,-88.609,18.52,80,99,2.49,US,1693296813
554,wuzhen,30.7454,120.4851,22.23,98,100,1.71,CN,1693296813
555,las heras,-46.5419,-68.9359,4.82,59,96,11.91,AR,1693296814
556,outjo,-20.1167,16.15,24.14,37,5,10.04,NA,1693296633
557,piggs peak,-25.9667,31.25,16.97,48,0,1.53,SZ,1693296815
558,ban karon,7.8477,98.2985,31.95,78,81,8.77,TH,1693296815
559,alice town,25.7167,-79.3,29.57,76,15,4.73,BS,1693296816
560,kirakira,-10.4544,161.9205,25.43,82,100,3.06,SB,1693296816
561,tecax,20.2,-89.2833,23.36,97,91,1.38,MX,1693296816
562,la passe,45.5549,-0.8967,16.13,69,96,5.1,FR,1693296817
563,digras,20.1167,77.7167,31.16,53,26,5.49,IN,1693296817
564,dudinka,69.4058,86.1778,15.9,47,22,3.48,RU,1693296818
565,floro,61.5996,5.0328,12.98,88,75,3.09,NO,1693296818
566,lompoc,34.6391,-120.4579,15.32,93,0,0.0,US,1693296819
567,rundu,-17.9333,19.7667,23.49,37,3,5.67,NA,1693296809
568,mukalla,14.5425,49.1242,36.55,45,14,5.18,YE,1693296819
569,sagua la grande,22.8067,-80.0756,25.55,90,100,3.2,CU,1693296820
570,kalymnos,36.95,26.9833,29.74,65,0,3.09,GR,1693296821
